[
  {
    "code": "AF",
    "name": "Afghanistan",
    "location": { "lat": 33.93911, "lng": 67.709953 }
  },
  {
    "code": "AL",
    "name": "Albania",
    "location": { "lat": 41.153332, "lng": 20.168331 }
  },
  {
    "code": "DZ",
    "name": "Algeria",
    "location": { "lat": 28.033886, "lng": 1.659626 }
  },
  {
    "code": "AS",
    "name": "American Samoa",
    "location": { "lat": -14.270972, "lng": -170.132217 }
  },
  {
    "code": "AD",
    "name": "Andorra",
    "location": { "lat": 42.506285, "lng": 1.521801 }
  },
  {
    "code": "AO",
    "name": "Angola",
    "location": { "lat": -11.202692, "lng": 17.873887 }
  },
  {
    "code": "AI",
    "name": "Anguilla",
    "location": { "lat": 18.220554, "lng": -63.06861499999999 }
  },
  {
    "code": "AQ",
    "name": "Antarctica",
    "location": { "lat": -82.862752, "lng": 135 }
  },
  {
    "code": "AG",
    "name": "Antigua and Barbuda",
    "location": { "lat": 17.060816, "lng": -61.796428 }
  },
  {
    "code": "AR",
    "name": "Argentina",
    "location": { "lat": -38.416097, "lng": -63.61667199999999 }
  },
  {
    "code": "AM",
    "name": "Armenia",
    "location": { "lat": 40.069099, "lng": 45.038189 }
  },
  {
    "code": "AW",
    "name": "Aruba",
    "location": { "lat": 12.52111, "lng": -69.968338 }
  },
  {
    "code": "AU",
    "name": "Australia",
    "location": { "lat": -25.274398, "lng": 133.775136 }
  },
  {
    "code": "AT",
    "name": "Austria",
    "location": { "lat": 47.516231, "lng": 14.550072 }
  },
  {
    "code": "AZ",
    "name": "Azerbaijan",
    "location": { "lat": 40.143105, "lng": 47.576927 }
  },
  {
    "code": "BS",
    "name": "Bahamas",
    "location": { "lat": 25.03428, "lng": -77.39627999999999 }
  },
  {
    "code": "BH",
    "name": "Bahrain",
    "location": { "lat": 26.0667, "lng": 50.5577 }
  },
  {
    "code": "BD",
    "name": "Bangladesh",
    "location": { "lat": 23.684994, "lng": 90.356331 }
  },
  {
    "code": "BB",
    "name": "Barbados",
    "location": { "lat": 13.193887, "lng": -59.543198 }
  },
  {
    "code": "BY",
    "name": "Belarus",
    "location": { "lat": 53.709807, "lng": 27.953389 }
  },
  {
    "code": "BE",
    "name": "Belgium",
    "location": { "lat": 50.503887, "lng": 4.469936 }
  },
  {
    "code": "BZ",
    "name": "Belize",
    "location": { "lat": 17.189877, "lng": -88.49765 }
  },
  {
    "code": "BJ",
    "name": "Benin",
    "location": { "lat": 9.30769, "lng": 2.315834 }
  },
  {
    "code": "BM",
    "name": "Bermuda",
    "location": { "lat": 32.3078, "lng": -64.7505 }
  },
  {
    "code": "BT",
    "name": "Bhutan",
    "location": { "lat": 27.514162, "lng": 90.433601 }
  },
  {
    "code": "BO",
    "name": "Bolivia",
    "location": { "lat": -16.290154, "lng": -63.58865299999999 }
  },
  {
    "code": "BA",
    "name": "Bosnia and Herzegovina",
    "location": { "lat": 43.915886, "lng": 17.679076 }
  },
  {
    "code": "BW",
    "name": "Botswana",
    "location": { "lat": -22.328474, "lng": 24.684866 }
  },
  {
    "code": "BV",
    "name": "Bouvet Island",
    "location": { "lat": -54.4207915, "lng": 3.3464497 }
  },
  {
    "code": "BR",
    "name": "Brazil",
    "location": { "lat": -14.235004, "lng": -51.92528 }
  },
  {
    "code": "IO",
    "name": "British Indian Ocean Territory",
    "location": { "lat": -6.343194, "lng": 71.876519 }
  },
  {
    "code": "BN",
    "name": "Brunei Darussalam",
    "location": { "lat": 4.535277, "lng": 114.727669 }
  },
  {
    "code": "BG",
    "name": "Bulgaria",
    "location": { "lat": 42.733883, "lng": 25.48583 }
  },
  {
    "code": "BF",
    "name": "Burkina Faso",
    "location": { "lat": 12.238333, "lng": -1.561593 }
  },
  {
    "code": "BI",
    "name": "Burundi",
    "location": { "lat": -3.373056, "lng": 29.918886 }
  },
  {
    "code": "KH",
    "name": "Cambodia",
    "location": { "lat": 12.565679, "lng": 104.990963 }
  },
  {
    "code": "CM",
    "name": "Cameroon",
    "location": { "lat": 7.369721999999999, "lng": 12.354722 }
  },
  {
    "code": "CA",
    "name": "Canada",
    "location": { "lat": 56.130366, "lng": -106.346771 }
  },
  {
    "code": "CV",
    "name": "Cape Verde",
    "location": { "lat": 16.5388, "lng": -23.0418 }
  },
  {
    "code": "KY",
    "name": "Cayman Islands",
    "location": { "lat": 19.3133, "lng": -81.2546 }
  },
  {
    "code": "CF",
    "name": "Central African Republic",
    "location": { "lat": 6.611110999999999, "lng": 20.939444 }
  },
  {
    "code": "TD",
    "name": "Chad",
    "location": { "lat": 15.454166, "lng": 18.732207 }
  },
  {
    "code": "CL",
    "name": "Chile",
    "location": { "lat": -35.675147, "lng": -71.542969 }
  },
  {
    "code": "CN",
    "name": "China",
    "location": { "lat": 35.86166, "lng": 104.195397 }
  },
  {
    "code": "CX",
    "name": "Christmas Island",
    "location": { "lat": -10.447525, "lng": 105.690449 }
  },
  {
    "code": "CC",
    "name": "Cocos (Keeling) Islands",
    "location": { "lat": -12.164165, "lng": 96.87095599999999 }
  },
  {
    "code": "CO",
    "name": "Colombia",
    "location": { "lat": 4.570868, "lng": -74.297333 }
  },
  {
    "code": "KM",
    "name": "Comoros",
    "location": { "lat": -11.6455, "lng": 43.3333 }
  },
  {
    "code": "CG",
    "name": "Congo",
    "location": { "lat": -4.038333, "lng": 21.758664 }
  },
  {
    "code": "CD",
    "name": "Congo, the Democratic Republic of the",
    "location": { "lat": -4.038333, "lng": 21.758664 }
  },
  {
    "code": "CK",
    "name": "Cook Islands",
    "location": { "lat": -21.236736, "lng": -159.777671 }
  },
  {
    "code": "CR",
    "name": "Costa Rica",
    "location": { "lat": 9.748916999999999, "lng": -83.753428 }
  },
  {
    "code": "CI",
    "name": "Cote D'Ivoire",
    "location": { "lat": 7.539988999999999, "lng": -5.547079999999999 }
  },
  {
    "code": "HR",
    "name": "Croatia",
    "location": { "lat": 45.1, "lng": 15.2000001 }
  },
  {
    "code": "CU",
    "name": "Cuba",
    "location": { "lat": 21.521757, "lng": -77.781167 }
  },
  {
    "code": "CY",
    "name": "Cyprus",
    "location": { "lat": 35.126413, "lng": 33.429859 }
  },
  {
    "code": "CZ",
    "name": "Czech Republic",
    "location": { "lat": 49.81749199999999, "lng": 15.472962 }
  },
  {
    "code": "DK",
    "name": "Denmark",
    "location": { "lat": 56.26392, "lng": 9.501785 }
  },
  {
    "code": "DJ",
    "name": "Djibouti",
    "location": { "lat": 11.825138, "lng": 42.590275 }
  },
  {
    "code": "DM",
    "name": "Dominica",
    "location": { "lat": 15.414999, "lng": -61.37097600000001 }
  },
  {
    "code": "DO",
    "name": "Dominican Republic",
    "location": { "lat": 18.735693, "lng": -70.162651 }
  },
  {
    "code": "EC",
    "name": "Ecuador",
    "location": { "lat": -1.831239, "lng": -78.18340599999999 }
  },
  {
    "code": "EG",
    "name": "Egypt",
    "location": { "lat": 26.820553, "lng": 30.802498 }
  },
  {
    "code": "SV",
    "name": "El Salvador",
    "location": { "lat": 13.794185, "lng": -88.89653 }
  },
  {
    "code": "GQ",
    "name": "Equatorial Guinea",
    "location": { "lat": 1.650801, "lng": 10.267895 }
  },
  {
    "code": "ER",
    "name": "Eritrea",
    "location": { "lat": 15.179384, "lng": 39.782334 }
  },
  {
    "code": "EE",
    "name": "Estonia",
    "location": { "lat": 58.595272, "lng": 25.0136071 }
  },
  {
    "code": "ET",
    "name": "Ethiopia",
    "location": { "lat": 9.145000000000001, "lng": 40.489673 }
  },
  {
    "code": "FK",
    "name": "Falkland Islands (Malvinas)",
    "location": { "lat": -51.796253, "lng": -59.523613 }
  },
  {
    "code": "FO",
    "name": "Faroe Islands",
    "location": { "lat": 61.89263500000001, "lng": -6.9118061 }
  },
  {
    "code": "FJ",
    "name": "Fiji",
    "location": { "lat": -17.713371, "lng": 178.065032 }
  },
  {
    "code": "FI",
    "name": "Finland",
    "location": { "lat": 61.92410999999999, "lng": 25.7481511 }
  },
  {
    "code": "FR",
    "name": "France",
    "location": { "lat": 46.227638, "lng": 2.213749 }
  },
  {
    "code": "GF",
    "name": "French Guiana",
    "location": { "lat": 3.933889, "lng": -53.125782 }
  },
  {
    "code": "PF",
    "name": "French Polynesia",
    "location": { "lat": -17.679742, "lng": -149.406843 }
  },
  {
    "code": "TF",
    "name": "French Southern Territories",
    "location": { "lat": -49.280366, "lng": 69.3485571 }
  },
  {
    "code": "GA",
    "name": "Gabon",
    "location": { "lat": -0.803689, "lng": 11.609444 }
  },
  {
    "code": "GM",
    "name": "Gambia",
    "location": { "lat": 13.443182, "lng": -15.310139 }
  },
  {
    "code": "GE",
    "name": "Georgia",
    "location": { "lat": 32.1656221, "lng": -82.9000751 }
  },
  {
    "code": "DE",
    "name": "Germany",
    "location": { "lat": 51.165691, "lng": 10.451526 }
  },
  {
    "code": "GH",
    "name": "Ghana",
    "location": { "lat": 7.946527, "lng": -1.023194 }
  },
  {
    "code": "GI",
    "name": "Gibraltar",
    "location": { "lat": 36.140751, "lng": -5.353585 }
  },
  {
    "code": "GR",
    "name": "Greece",
    "location": { "lat": 39.074208, "lng": 21.824312 }
  },
  {
    "code": "GL",
    "name": "Greenland",
    "location": { "lat": 71.706936, "lng": -42.604303 }
  },
  {
    "code": "GD",
    "name": "Grenada",
    "location": { "lat": 12.1165, "lng": -61.67899999999999 }
  },
  {
    "code": "GP",
    "name": "Guadeloupe",
    "location": { "lat": 16.265, "lng": -61.55099999999999 }
  },
  {
    "code": "GU",
    "name": "Guam",
    "location": { "lat": 13.444304, "lng": 144.793731 }
  },
  {
    "code": "GT",
    "name": "Guatemala",
    "location": { "lat": 15.783471, "lng": -90.23075899999999 }
  },
  {
    "code": "GN",
    "name": "Guinea",
    "location": { "lat": 9.945587, "lng": -9.696645 }
  },
  {
    "code": "GW",
    "name": "Guinea-Bissau",
    "location": { "lat": 11.803749, "lng": -15.180413 }
  },
  {
    "code": "GY",
    "name": "Guyana",
    "location": { "lat": 4.860416, "lng": -58.93018 }
  },
  {
    "code": "HT",
    "name": "Haiti",
    "location": { "lat": 18.971187, "lng": -72.285215 }
  },
  {
    "code": "HM",
    "name": "Heard Island and Mcdonald Islands",
    "location": { "lat": -53.08181, "lng": 73.50415799999999 }
  },
  {
    "code": "VA",
    "name": "Holy See (Vatican City State)",
    "location": { "lat": 41.902916, "lng": 12.453389 }
  },
  {
    "code": "HN",
    "name": "Honduras",
    "location": { "lat": 15.199999, "lng": -86.241905 }
  },
  {
    "code": "HK",
    "name": "Hong Kong",
    "location": { "lat": 22.3193039, "lng": 114.1693611 }
  },
  {
    "code": "HU",
    "name": "Hungary",
    "location": { "lat": 47.162494, "lng": 19.5033041 }
  },
  {
    "code": "IS",
    "name": "Iceland",
    "location": { "lat": 64.963051, "lng": -19.020835 }
  },
  {
    "code": "IN",
    "name": "India",
    "location": { "lat": 20.593684, "lng": 78.96288 }
  },
  {
    "code": "ID",
    "name": "Indonesia",
    "location": { "lat": -0.789275, "lng": 113.921327 }
  },
  {
    "code": "IR",
    "name": "Iran, Islamic Republic of",
    "location": { "lat": 32.427908, "lng": 53.688046 }
  },
  {
    "code": "IQ",
    "name": "Iraq",
    "location": { "lat": 33.223191, "lng": 43.679291 }
  },
  {
    "code": "IE",
    "name": "Ireland",
    "location": { "lat": 53.1423672, "lng": -7.692053599999999 }
  },
  {
    "code": "IL",
    "name": "Israel",
    "location": { "lat": 31.046051, "lng": 34.851612 }
  },
  {
    "code": "IT",
    "name": "Italy",
    "location": { "lat": 41.87194, "lng": 12.56738 }
  },
  {
    "code": "JM",
    "name": "Jamaica",
    "location": { "lat": 18.109581, "lng": -77.297508 }
  },
  {
    "code": "JP",
    "name": "Japan",
    "location": { "lat": 36.204824, "lng": 138.252924 }
  },
  {
    "code": "JO",
    "name": "Jordan",
    "location": { "lat": 37.09024, "lng": -95.712891 }
  },
  {
    "code": "KZ",
    "name": "Kazakhstan",
    "location": { "lat": 48.019573, "lng": 66.923684 }
  },
  {
    "code": "KE",
    "name": "Kenya",
    "location": { "lat": -0.023559, "lng": 37.906193 }
  },
  {
    "code": "KI",
    "name": "Kiribati",
    "location": { "lat": -3.370417, "lng": -168.734039 }
  },
  {
    "code": "KP",
    "name": "North Korea",
    "location": { "lat": 40.339852, "lng": 127.510093 }
  },
  {
    "code": "KR",
    "name": "South Korea",
    "location": { "lat": 35.907757, "lng": 127.766922 }
  },
  {
    "code": "KW",
    "name": "Kuwait",
    "location": { "lat": 29.31166, "lng": 47.481766 }
  },
  {
    "code": "KG",
    "name": "Kyrgyzstan",
    "location": { "lat": 41.20438, "lng": 74.766098 }
  },
  {
    "code": "LA",
    "name": "Lao People's Democratic Republic",
    "location": { "lat": 19.85627, "lng": 102.495496 }
  },
  {
    "code": "LV",
    "name": "Latvia",
    "location": { "lat": 56.879635, "lng": 24.603189 }
  },
  {
    "code": "LB",
    "name": "Lebanon",
    "location": { "lat": 33.854721, "lng": 35.862285 }
  },
  {
    "code": "LS",
    "name": "Lesotho",
    "location": { "lat": -29.609988, "lng": 28.233608 }
  },
  {
    "code": "LR",
    "name": "Liberia",
    "location": { "lat": 6.428055, "lng": -9.429499000000002 }
  },
  {
    "code": "LY",
    "name": "Libya",
    "location": { "lat": 26.3351, "lng": 17.228331 }
  },
  {
    "code": "LI",
    "name": "Liechtenstein",
    "location": { "lat": 47.166, "lng": 9.555373 }
  },
  {
    "code": "LT",
    "name": "Lithuania",
    "location": { "lat": 55.169438, "lng": 23.881275 }
  },
  {
    "code": "LU",
    "name": "Luxembourg",
    "location": { "lat": 49.815273, "lng": 6.129582999999999 }
  },
  {
    "code": "MO",
    "name": "Macao",
    "location": { "lat": 22.198745, "lng": 113.543873 }
  },
  {
    "code": "MG",
    "name": "Madagascar",
    "location": { "lat": -18.766947, "lng": 46.869107 }
  },
  {
    "code": "MW",
    "name": "Malawi",
    "location": { "lat": -13.254308, "lng": 34.301525 }
  },
  {
    "code": "MY",
    "name": "Malaysia",
    "location": { "lat": 4.210484, "lng": 101.975766 }
  },
  {
    "code": "MV",
    "name": "Maldives",
    "location": { "lat": 3.202778, "lng": 73.22068 }
  },
  {
    "code": "ML",
    "name": "Mali",
    "location": { "lat": 17.570692, "lng": -3.996166 }
  },
  {
    "code": "MT",
    "name": "Malta",
    "location": { "lat": 35.937496, "lng": 14.375416 }
  },
  {
    "code": "MH",
    "name": "Marshall Islands",
    "location": { "lat": 7.131474, "lng": 171.184478 }
  },
  {
    "code": "MQ",
    "name": "Martinique",
    "location": { "lat": 14.641528, "lng": -61.024174 }
  },
  {
    "code": "MR",
    "name": "Mauritania",
    "location": { "lat": 21.00789, "lng": -10.940835 }
  },
  {
    "code": "MU",
    "name": "Mauritius",
    "location": { "lat": -20.348404, "lng": 57.55215200000001 }
  },
  {
    "code": "YT",
    "name": "Mayotte",
    "location": { "lat": -12.8275, "lng": 45.166244 }
  },
  {
    "code": "MX",
    "name": "Mexico",
    "location": { "lat": 23.634501, "lng": -102.552784 }
  },
  {
    "code": "FM",
    "name": "Micronesia, Federated States of",
    "location": { "lat": 7.425554, "lng": 150.550812 }
  },
  {
    "code": "MD",
    "name": "Moldova, Republic of",
    "location": { "lat": 47.411631, "lng": 28.369885 }
  },
  {
    "code": "MC",
    "name": "Monaco",
    "location": { "lat": 43.73841760000001, "lng": 7.424615799999999 }
  },
  {
    "code": "MN",
    "name": "Mongolia",
    "location": { "lat": 46.862496, "lng": 103.846656 }
  },
  {
    "code": "MS",
    "name": "Montserrat",
    "location": { "lat": 16.742498, "lng": -62.187366 }
  },
  {
    "code": "MA",
    "name": "Morocco",
    "location": { "lat": 31.791702, "lng": -7.092619999999999 }
  },
  {
    "code": "MZ",
    "name": "Mozambique",
    "location": { "lat": -18.665695, "lng": 35.529562 }
  },
  {
    "code": "MM",
    "name": "Myanmar",
    "location": { "lat": 21.916221, "lng": 95.955974 }
  },
  {
    "code": "NA",
    "name": "Namibia",
    "location": { "lat": -22.95764, "lng": 18.49041 }
  },
  {
    "code": "NR",
    "name": "Nauru",
    "location": { "lat": -0.522778, "lng": 166.931503 }
  },
  {
    "code": "NP",
    "name": "Nepal",
    "location": { "lat": 28.394857, "lng": 84.12400799999999 }
  },
  {
    "code": "NL",
    "name": "Netherlands",
    "location": { "lat": 52.132633, "lng": 5.291265999999999 }
  },
  {
    "code": "NC",
    "name": "New Caledonia",
    "location": { "lat": -20.904305, "lng": 165.618042 }
  },
  {
    "code": "NZ",
    "name": "New Zealand",
    "location": { "lat": -40.900557, "lng": 174.885971 }
  },
  {
    "code": "NI",
    "name": "Nicaragua",
    "location": { "lat": 12.865416, "lng": -85.207229 }
  },
  {
    "code": "NE",
    "name": "Niger",
    "location": { "lat": 17.607789, "lng": 8.081666 }
  },
  {
    "code": "NG",
    "name": "Nigeria",
    "location": { "lat": 9.081999, "lng": 8.675277 }
  },
  {
    "code": "NU",
    "name": "Niue",
    "location": { "lat": -19.054445, "lng": -169.867233 }
  },
  {
    "code": "NF",
    "name": "Norfolk Island",
    "location": { "lat": -29.040835, "lng": 167.954712 }
  },
  {
    "code": "MK",
    "name": "North Macedonia, Republic of",
    "location": { "lat": 41.608635, "lng": 21.745275 }
  },
  {
    "code": "MP",
    "name": "Northern Mariana Islands",
    "location": { "lat": 15.0979, "lng": 145.6739 }
  },
  {
    "code": "NO",
    "name": "Norway",
    "location": { "lat": 60.47202399999999, "lng": 8.468945999999999 }
  },
  {
    "code": "OM",
    "name": "Oman",
    "location": { "lat": 21.4735329, "lng": 55.975413 }
  },
  {
    "code": "PK",
    "name": "Pakistan",
    "location": { "lat": 30.375321, "lng": 69.34511599999999 }
  },
  {
    "code": "PW",
    "name": "Palau",
    "location": { "lat": 7.514979999999999, "lng": 134.58252 }
  },
  {
    "code": "PS",
    "name": "Palestinian Territory, Occupied",
    "location": { "lat": 31.952162, "lng": 35.233154 }
  },
  {
    "code": "PA",
    "name": "Panama",
    "location": { "lat": 8.537981, "lng": -80.782127 }
  },
  {
    "code": "PG",
    "name": "Papua New Guinea",
    "location": { "lat": -6.314992999999999, "lng": 143.95555 }
  },
  {
    "code": "PY",
    "name": "Paraguay",
    "location": { "lat": -23.442503, "lng": -58.443832 }
  },
  {
    "code": "PE",
    "name": "Peru",
    "location": { "lat": -9.189967, "lng": -75.015152 }
  },
  {
    "code": "PH",
    "name": "Philippines",
    "location": { "lat": 12.879721, "lng": 121.774017 }
  },
  {
    "code": "PN",
    "name": "Pitcairn",
    "location": { "lat": -24.3767537, "lng": -128.3242376 }
  },
  {
    "code": "PL",
    "name": "Poland",
    "location": { "lat": 51.919438, "lng": 19.145136 }
  },
  {
    "code": "PT",
    "name": "Portugal",
    "location": { "lat": 39.39987199999999, "lng": -8.224454 }
  },
  {
    "code": "PR",
    "name": "Puerto Rico",
    "location": { "lat": 18.220833, "lng": -66.590149 }
  },
  {
    "code": "QA",
    "name": "Qatar",
    "location": { "lat": 25.354826, "lng": 51.183884 }
  },
  {
    "code": "RE",
    "name": "Reunion",
    "location": { "lat": -21.115141, "lng": 55.536384 }
  },
  {
    "code": "RO",
    "name": "Romania",
    "location": { "lat": 45.943161, "lng": 24.96676 }
  },
  {
    "code": "RU",
    "name": "Russian Federation",
    "location": { "lat": 61.52401, "lng": 105.318756 }
  },
  {
    "code": "RW",
    "name": "Rwanda",
    "location": { "lat": -1.940278, "lng": 29.873888 }
  },
  {
    "code": "SH",
    "name": "Saint Helena",
    "location": { "lat": -15.9650104, "lng": -5.7089241 }
  },
  {
    "code": "KN",
    "name": "Saint Kitts and Nevis",
    "location": { "lat": 17.357822, "lng": -62.782998 }
  },
  {
    "code": "LC",
    "name": "Saint Lucia",
    "location": { "lat": 13.909444, "lng": -60.978893 }
  },
  {
    "code": "PM",
    "name": "Saint Pierre and Miquelon",
    "location": { "lat": 46.8852, "lng": -56.3159 }
  },
  {
    "code": "VC",
    "name": "Saint Vincent and the Grenadines",
    "location": { "lat": 12.984305, "lng": -61.287228 }
  },
  {
    "code": "WS",
    "name": "Samoa",
    "location": { "lat": -13.759029, "lng": -172.104629 }
  },
  {
    "code": "SM",
    "name": "San Marino",
    "location": { "lat": 43.94236, "lng": 12.457777 }
  },
  {
    "code": "ST",
    "name": "Sao Tome and Principe",
    "location": { "lat": 0.18636, "lng": 6.613080999999999 }
  },
  {
    "code": "SA",
    "name": "Saudi Arabia",
    "location": { "lat": 23.885942, "lng": 45.079162 }
  },
  {
    "code": "SN",
    "name": "Senegal",
    "location": { "lat": 14.497401, "lng": -14.452362 }
  },
  {
    "code": "SC",
    "name": "Seychelles",
    "location": { "lat": -4.679574, "lng": 55.491977 }
  },
  {
    "code": "SL",
    "name": "Sierra Leone",
    "location": { "lat": 8.460555, "lng": -11.779889 }
  },
  {
    "code": "SG",
    "name": "Singapore",
    "location": { "lat": 1.352083, "lng": 103.819836 }
  },
  {
    "code": "SK",
    "name": "Slovakia",
    "location": { "lat": 48.669026, "lng": 19.699024 }
  },
  {
    "code": "SI",
    "name": "Slovenia",
    "location": { "lat": 46.151241, "lng": 14.995463 }
  },
  {
    "code": "SB",
    "name": "Solomon Islands",
    "location": { "lat": -9.64571, "lng": 160.156194 }
  },
  {
    "code": "SO",
    "name": "Somalia",
    "location": { "lat": 5.152149, "lng": 46.199616 }
  },
  {
    "code": "ZA",
    "name": "South Africa",
    "location": { "lat": -30.559482, "lng": 22.937506 }
  },
  {
    "code": "GS",
    "name": "South Georgia and the South Sandwich Islands",
    "location": { "lat": -54.429579, "lng": -36.587909 }
  },
  {
    "code": "ES",
    "name": "Spain",
    "location": { "lat": 40.46366700000001, "lng": -3.74922 }
  },
  {
    "code": "LK",
    "name": "Sri Lanka",
    "location": { "lat": 7.873053999999999, "lng": 80.77179699999999 }
  },
  {
    "code": "SD",
    "name": "Sudan",
    "location": { "lat": 12.862807, "lng": 30.217636 }
  },
  {
    "code": "SR",
    "name": "Suriname",
    "location": { "lat": 3.919305, "lng": -56.027783 }
  },
  {
    "code": "SJ",
    "name": "Svalbard and Jan Mayen",
    "location": { "lat": 77.55360399999999, "lng": 23.6702719 }
  },
  {
    "code": "SZ",
    "name": "Eswatini",
    "location": { "lat": -26.522503, "lng": 31.465866 }
  },
  {
    "code": "SE",
    "name": "Sweden",
    "location": { "lat": 60.12816100000001, "lng": 18.643501 }
  },
  {
    "code": "CH",
    "name": "Switzerland",
    "location": { "lat": 46.818188, "lng": 8.227511999999999 }
  },
  {
    "code": "SY",
    "name": "Syrian Arab Republic",
    "location": { "lat": 34.80207499999999, "lng": 38.996815 }
  },
  {
    "code": "TW",
    "name": "Taiwan",
    "location": { "lat": 23.69781, "lng": 120.960515 }
  },
  {
    "code": "TJ",
    "name": "Tajikistan",
    "location": { "lat": 38.861034, "lng": 71.276093 }
  },
  {
    "code": "TZ",
    "name": "Tanzania, United Republic of",
    "location": { "lat": -6.369028, "lng": 34.888822 }
  },
  {
    "code": "TH",
    "name": "Thailand",
    "location": { "lat": 15.870032, "lng": 100.992541 }
  },
  {
    "code": "TL",
    "name": "Timor-Leste",
    "location": { "lat": -8.874217, "lng": 125.727539 }
  },
  {
    "code": "TG",
    "name": "Togo",
    "location": { "lat": 36.4197574, "lng": -98.76481059999999 }
  },
  {
    "code": "TK",
    "name": "Tokelau",
    "location": { "lat": -9.200199999999999, "lng": -171.8484 }
  },
  {
    "code": "TO",
    "name": "Tonga",
    "location": { "lat": -21.178986, "lng": -175.198242 }
  },
  {
    "code": "TT",
    "name": "Trinidad and Tobago",
    "location": { "lat": 10.691803, "lng": -61.222503 }
  },
  {
    "code": "TN",
    "name": "Tunisia",
    "location": { "lat": 33.886917, "lng": 9.537499 }
  },
  {
    "code": "TR",
    "name": "Turkey",
    "location": { "lat": 38.963745, "lng": 35.243322 }
  },
  {
    "code": "TM",
    "name": "Turkmenistan",
    "location": { "lat": 38.969719, "lng": 59.556278 }
  },
  {
    "code": "TC",
    "name": "Turks and Caicos Islands",
    "location": { "lat": 21.694025, "lng": -71.797928 }
  },
  {
    "code": "TV",
    "name": "Tuvalu",
    "location": { "lat": -7.109534999999999, "lng": 177.64933 }
  },
  {
    "code": "UG",
    "name": "Uganda",
    "location": { "lat": 1.373333, "lng": 32.290275 }
  },
  {
    "code": "UA",
    "name": "Ukraine",
    "location": { "lat": 48.379433, "lng": 31.1655799 }
  },
  {
    "code": "AE",
    "name": "United Arab Emirates",
    "location": { "lat": 23.424076, "lng": 53.847818 }
  },
  {
    "code": "GB",
    "name": "United Kingdom",
    "location": { "lat": 55.378051, "lng": -3.435973 }
  },
  {
    "code": "US",
    "name": "United States of America",
    "location": { "lat": 37.09024, "lng": -95.712891 }
  },
  {
    "code": "UM",
    "name": "United States Minor Outlying Islands",
    "location": { "lat": 19.2823192, "lng": 166.647047 }
  },
  {
    "code": "UY",
    "name": "Uruguay",
    "location": { "lat": -32.522779, "lng": -55.765835 }
  },
  {
    "code": "UZ",
    "name": "Uzbekistan",
    "location": { "lat": 41.377491, "lng": 64.585262 }
  },
  {
    "code": "VU",
    "name": "Vanuatu",
    "location": { "lat": -15.376706, "lng": 166.959158 }
  },
  {
    "code": "VE",
    "name": "Venezuela",
    "location": { "lat": 6.42375, "lng": -66.58973 }
  },
  {
    "code": "VN",
    "name": "Vietnam",
    "location": { "lat": 14.058324, "lng": 108.277199 }
  },
  {
    "code": "VG",
    "name": "Virgin Islands, British",
    "location": { "lat": 18.420695, "lng": -64.639968 }
  },
  {
    "code": "VI",
    "name": "Virgin Islands, U.S.",
    "location": { "lat": 18.335765, "lng": -64.896335 }
  },
  {
    "code": "WF",
    "name": "Wallis and Futuna",
    "location": { "lat": -14.2938, "lng": -178.1165 }
  },
  {
    "code": "EH",
    "name": "Western Sahara",
    "location": { "lat": 24.215527, "lng": -12.885834 }
  },
  {
    "code": "YE",
    "name": "Yemen",
    "location": { "lat": 15.552727, "lng": 48.516388 }
  },
  {
    "code": "ZM",
    "name": "Zambia",
    "location": { "lat": -13.133897, "lng": 27.849332 }
  },
  {
    "code": "ZW",
    "name": "Zimbabwe",
    "location": { "lat": -19.015438, "lng": 29.154857 }
  },
  {
    "code": "AX",
    "name": "Åland Islands",
    "location": { "lat": 60.1785247, "lng": 19.9156105 }
  },
  {
    "code": "BQ",
    "name": "Bonaire, Sint Eustatius and Saba",
    "location": { "lat": 12.1783611, "lng": -68.2385339 }
  },
  {
    "code": "CW",
    "name": "Curaçao",
    "location": { "lat": 12.16957, "lng": -68.99002 }
  },
  {
    "code": "GG",
    "name": "Guernsey",
    "location": { "lat": 49.4481982, "lng": -2.58949 }
  },
  {
    "code": "IM",
    "name": "Isle of Man",
    "location": { "lat": 54.236107, "lng": -4.548056 }
  },
  {
    "code": "JE",
    "name": "Jersey",
    "location": { "lat": 49.214439, "lng": -2.13125 }
  },
  {
    "code": "ME",
    "name": "Montenegro",
    "location": { "lat": 42.708678, "lng": 19.37439 }
  },
  {
    "code": "BL",
    "name": "Saint Barthélemy",
    "location": { "lat": 17.9, "lng": -62.833333 }
  },
  {
    "code": "MF",
    "name": "Saint Martin (French part)",
    "location": { "lat": 18.08255, "lng": -63.05225100000001 }
  },
  {
    "code": "RS",
    "name": "Serbia",
    "location": { "lat": 44.016521, "lng": 21.005859 }
  },
  {
    "code": "SX",
    "name": "Sint Maarten (Dutch part)",
    "location": { "lat": 18.04248, "lng": -63.05483 }
  },
  {
    "code": "SS",
    "name": "South Sudan",
    "location": { "lat": 6.876991899999999, "lng": 31.3069788 }
  },
  {
    "code": "XK",
    "name": "Kosovo",
    "location": { "lat": 42.6026359, "lng": 20.902977 }
  }
]
